{"system":"NTDLRT","source_notes":"交通部 TDX 運輸資料流通服務(淡海輕軌:路線幾何/站序,2026-07 抓取);班距為官方公告估算(尖峰約10分/離峰約15分),TDX 無班距/站間時間檔","lines":[{"id":"V","name":"綠山線","color":"#FF2A00","peakHeadwaySec":600,"offpeakHeadwaySec":900,"stations":[{"name":"紅樹林","lat":25.155597,"lon":121.458851,"d":0},{"name":"竿蓁林","lat":25.162415,"lon":121.456232,"d":0.8192},{"name":"淡金鄧公","lat":25.169363,"lon":121.460813,"d":1.7529},{"name":"淡江大學","lat":25.176959,"lon":121.456082,"d":2.7281},{"name":"淡金北新","lat":25.181131,"lon":121.452366,"d":3.3298},{"name":"新市一路","lat":25.183817,"lon":121.448258,"d":3.8411},{"name":"淡水行政中心","lat":25.189017,"lon":121.444482,"d":4.6706},{"name":"濱海義山","lat":25.18977,"lon":121.43738,"d":5.3909},{"name":"濱海沙崙","lat":25.190501,"lon":121.431589,"d":5.9793},{"name":"淡海新市鎮","lat":25.195691,"lon":121.432471,"d":6.6327},{"name":"崁頂","lat":25.200994,"lon":121.434651,"d":7.2626}],"shape":[[25.1556,121.458907],[25.156509,121.458848],[25.156585,121.458836],[25.156866,121.45877],[25.157005,121.458722],[25.157229,121.458612],[25.157707,121.458323],[25.158153,121.458052],[25.158784,121.45767],[25.159501,121.457237],[25.160211,121.456809],[25.160593,121.45659],[25.160738,121.456516],[25.160904,121.45645],[25.16111,121.456376],[25.161337,121.456307],[25.161564,121.45626],[25.161874,121.456227],[25.162005,121.456222],[25.162147,121.456221],[25.162317,121.456223],[25.162415,121.456234],[25.162495,121.456243],[25.162699,121.456277],[25.162898,121.456317],[25.163093,121.456381],[25.163253,121.456449],[25.163416,121.456528],[25.163529,121.456597],[25.16367,121.456699],[25.163881,121.456875],[25.164151,121.457158],[25.164664,121.457692],[25.165013,121.458052],[25.16511,121.458151],[25.166197,121.459284],[25.166945,121.460058],[25.167221,121.460287],[25.167432,121.460428],[25.167611,121.460525],[25.167851,121.460644],[25.168005,121.460699],[25.168146,121.46074],[25.168449,121.460807],[25.16873,121.460843],[25.168995,121.460844],[25.169197,121.460826],[25.169362,121.460803],[25.169401,121.460797],[25.169619,121.460744],[25.169811,121.460689],[25.170015,121.4606],[25.170222,121.460501],[25.170477,121.460348],[25.171532,121.45965],[25.172576,121.458965],[25.172882,121.458762],[25.173047,121.458653],[25.173334,121.458398],[25.17338,121.458357],[25.173586,121.458152],[25.173671,121.458067],[25.173689,121.458052],[25.173899,121.457881],[25.174703,121.45735],[25.17525,121.456979],[25.175549,121.45678],[25.175649,121.456732],[25.17575,121.456678],[25.175933,121.456614],[25.176178,121.456523],[25.176406,121.456425],[25.176609,121.45631],[25.176814,121.456174],[25.176958,121.45608],[25.177341,121.455827],[25.1778,121.455526],[25.178458,121.455092],[25.178699,121.454934],[25.179122,121.454624],[25.179311,121.454481],[25.17961,121.45421],[25.179796,121.454033],[25.180116,121.453685],[25.180398,121.453361],[25.180543,121.453178],[25.180693,121.452979],[25.180881,121.452686],[25.181101,121.452342],[25.181205,121.452178],[25.18195,121.450987],[25.182574,121.449994],[25.183004,121.44931],[25.183256,121.448911],[25.183417,121.448683],[25.183674,121.448368],[25.1838,121.448238],[25.183842,121.448194],[25.184039,121.44799],[25.184407,121.447695],[25.184531,121.447603],[25.18486,121.447396],[25.18508,121.447276],[25.185392,121.447134],[25.185598,121.447055],[25.185957,121.446946],[25.186082,121.446913],[25.186365,121.446857],[25.186692,121.44682],[25.187038,121.446805],[25.18726,121.446812],[25.187761,121.446841],[25.188331,121.446883],[25.188501,121.44688],[25.188583,121.446867],[25.188653,121.446841],[25.188745,121.446786],[25.188819,121.446716],[25.188866,121.446638],[25.188919,121.446535],[25.188935,121.446458],[25.188942,121.446391],[25.188945,121.446207],[25.188925,121.445284],[25.188916,121.444947],[25.188921,121.444834],[25.18896,121.444474],[25.18903,121.443822],[25.189037,121.443694],[25.189039,121.443541],[25.189029,121.443028],[25.189033,121.442915],[25.189044,121.442823],[25.189067,121.442645],[25.189251,121.441195],[25.189299,121.440816],[25.189299,121.440816],[25.189602,121.438423],[25.189737,121.437375],[25.189949,121.435735],[25.190287,121.433052],[25.190299,121.432952],[25.190477,121.431585],[25.190519,121.43126],[25.190873,121.430819],[25.190873,121.430819],[25.190926,121.43083],[25.190998,121.430844],[25.194141,121.431941],[25.19569,121.432474],[25.196971,121.432915],[25.197366,121.433052],[25.197879,121.43323],[25.198334,121.433395],[25.198389,121.433416],[25.198768,121.433584],[25.200275,121.434304],[25.200987,121.434669]],"segs":[{"run":null},{"run":null},{"run":null},{"run":null},{"run":null},{"run":null},{"run":null},{"run":null},{"run":null},{"run":null}],"headway_estimated":true},{"id":"VB","name":"藍海線","color":"#FF2A00","peakHeadwaySec":600,"offpeakHeadwaySec":900,"stations":[{"name":"紅樹林","lat":25.155597,"lon":121.458851,"d":0},{"name":"竿蓁林","lat":25.162415,"lon":121.456232,"d":0.8192},{"name":"淡金鄧公","lat":25.169363,"lon":121.460813,"d":1.7529},{"name":"淡江大學","lat":25.176959,"lon":121.456082,"d":2.7281},{"name":"淡金北新","lat":25.181131,"lon":121.452366,"d":3.3298},{"name":"新市一路","lat":25.183817,"lon":121.448258,"d":3.8411},{"name":"淡水行政中心","lat":25.189017,"lon":121.444482,"d":4.6706},{"name":"濱海義山","lat":25.18977,"lon":121.43738,"d":5.3909},{"name":"濱海沙崙","lat":25.190501,"lon":121.431589,"d":5.9793},{"name":"台北海洋大學","lat":25.191141,"lon":121.426365,"d":6.3778},{"name":"沙崙","lat":25.187536,"lon":121.417331,"d":7.4968},{"name":"淡水漁人碼頭","lat":25.182005,"lon":121.418605,"d":8.2413}],"shape":[[25.1556,121.458907],[25.156509,121.458848],[25.156585,121.458836],[25.156866,121.45877],[25.157005,121.458722],[25.157229,121.458612],[25.157707,121.458323],[25.158153,121.458052],[25.158784,121.45767],[25.159501,121.457237],[25.160211,121.456809],[25.160593,121.45659],[25.160738,121.456516],[25.160904,121.45645],[25.16111,121.456376],[25.161337,121.456307],[25.161564,121.45626],[25.161874,121.456227],[25.162005,121.456222],[25.162147,121.456221],[25.162317,121.456223],[25.162415,121.456234],[25.162495,121.456243],[25.162699,121.456277],[25.162898,121.456317],[25.163093,121.456381],[25.163253,121.456449],[25.163416,121.456528],[25.163529,121.456597],[25.16367,121.456699],[25.163881,121.456875],[25.164151,121.457158],[25.164664,121.457692],[25.165013,121.458052],[25.16511,121.458151],[25.166197,121.459284],[25.166945,121.460058],[25.167221,121.460287],[25.167432,121.460428],[25.167611,121.460525],[25.167851,121.460644],[25.168005,121.460699],[25.168146,121.46074],[25.168449,121.460807],[25.16873,121.460843],[25.168995,121.460844],[25.169197,121.460826],[25.169362,121.460803],[25.169401,121.460797],[25.169619,121.460744],[25.169811,121.460689],[25.170015,121.4606],[25.170222,121.460501],[25.170477,121.460348],[25.171532,121.45965],[25.172576,121.458965],[25.172882,121.458762],[25.173047,121.458653],[25.173334,121.458398],[25.17338,121.458357],[25.173586,121.458152],[25.173671,121.458067],[25.173689,121.458052],[25.173899,121.457881],[25.174703,121.45735],[25.17525,121.456979],[25.175549,121.45678],[25.175649,121.456732],[25.17575,121.456678],[25.175933,121.456614],[25.176178,121.456523],[25.176406,121.456425],[25.176609,121.45631],[25.176814,121.456174],[25.176958,121.45608],[25.177341,121.455827],[25.1778,121.455526],[25.178458,121.455092],[25.178699,121.454934],[25.179122,121.454624],[25.179311,121.454481],[25.17961,121.45421],[25.179796,121.454033],[25.180116,121.453685],[25.180398,121.453361],[25.180543,121.453178],[25.180693,121.452979],[25.180881,121.452686],[25.181101,121.452342],[25.181205,121.452178],[25.18195,121.450987],[25.182574,121.449994],[25.183004,121.44931],[25.183256,121.448911],[25.183417,121.448683],[25.183674,121.448368],[25.1838,121.448238],[25.183842,121.448194],[25.184039,121.44799],[25.184407,121.447695],[25.184531,121.447603],[25.18486,121.447396],[25.18508,121.447276],[25.185392,121.447134],[25.185598,121.447055],[25.185957,121.446946],[25.186082,121.446913],[25.186365,121.446857],[25.186692,121.44682],[25.187038,121.446805],[25.18726,121.446812],[25.187761,121.446841],[25.188331,121.446883],[25.188501,121.44688],[25.188583,121.446867],[25.188653,121.446841],[25.188745,121.446786],[25.188819,121.446716],[25.188866,121.446638],[25.188919,121.446535],[25.188935,121.446458],[25.188942,121.446391],[25.188945,121.446207],[25.188925,121.445284],[25.188916,121.444947],[25.188921,121.444834],[25.18896,121.444474],[25.18903,121.443822],[25.189037,121.443694],[25.189039,121.443541],[25.189029,121.443028],[25.189033,121.442915],[25.189044,121.442823],[25.189067,121.442645],[25.189251,121.441195],[25.189299,121.440816],[25.189299,121.440816],[25.189602,121.438423],[25.189737,121.437375],[25.189949,121.435735],[25.190287,121.433052],[25.190299,121.432952],[25.190477,121.431585],[25.190687,121.429878],[25.190709,121.429707],[25.191157,121.426368],[25.19122,121.425898],[25.191225,121.425851],[25.191246,121.425629],[25.19126,121.425406],[25.191266,121.425247],[25.191286,121.424572],[25.191292,121.424422],[25.191305,121.424253],[25.191323,121.424086],[25.191347,121.423915],[25.191378,121.423746],[25.191415,121.423578],[25.191457,121.423413],[25.191487,121.423309],[25.191519,121.423206],[25.191554,121.423104],[25.191591,121.423003],[25.191659,121.422831],[25.191806,121.422491],[25.191833,121.422419],[25.191848,121.42236],[25.191853,121.42233],[25.191855,121.422305],[25.191855,121.422277],[25.191854,121.42225],[25.19185,121.422223],[25.191844,121.422196],[25.191837,121.422171],[25.191827,121.422147],[25.191816,121.422123],[25.191803,121.422101],[25.191787,121.422076],[25.191768,121.422054],[25.191727,121.422011],[25.191664,121.421959],[25.191169,121.421576],[25.191042,121.421472],[25.191042,121.421472],[25.190951,121.421391],[25.190862,121.421307],[25.190775,121.421219],[25.190692,121.421127],[25.190622,121.421046],[25.190553,121.42096],[25.189777,121.419965],[25.189777,121.419965],[25.189367,121.419439],[25.189252,121.41931],[25.188851,121.418865],[25.188715,121.418714],[25.188,121.417889],[25.187538,121.417329],[25.187291,121.417029],[25.187257,121.416989],[25.187226,121.416961],[25.187211,121.416949],[25.187185,121.416933],[25.187164,121.416923],[25.187143,121.416915],[25.187121,121.416908],[25.187098,121.416904],[25.187075,121.416902],[25.187052,121.416903],[25.187024,121.416906],[25.186996,121.416913],[25.186913,121.416953],[25.186857,121.416985],[25.185054,121.418109],[25.184959,121.41817],[25.184883,121.418222],[25.184821,121.418268],[25.184761,121.418316],[25.184702,121.418366],[25.184644,121.418417],[25.184561,121.418497],[25.184149,121.418898],[25.184061,121.418981],[25.184016,121.41902],[25.183971,121.419056],[25.183925,121.419092],[25.183877,121.419125],[25.183817,121.419164],[25.183756,121.4192],[25.183693,121.419234],[25.183629,121.419264],[25.183564,121.419291],[25.183498,121.419316],[25.183435,121.419336],[25.18336,121.419357],[25.183281,121.419376],[25.18318,121.419395],[25.182938,121.41944],[25.182885,121.419446],[25.182751,121.419447],[25.182703,121.419442],[25.18267,121.419434],[25.182638,121.419424],[25.182608,121.419409],[25.182579,121.419392],[25.182556,121.419375],[25.182534,121.419357],[25.182514,121.419337],[25.182495,121.419315],[25.182004,121.418606]],"segs":[{"run":null},{"run":null},{"run":null},{"run":null},{"run":null},{"run":null},{"run":null},{"run":null},{"run":null},{"run":null},{"run":null}],"headway_estimated":true}]}