{"基隆":{"name":"基隆","id":"0900","address":"203001基隆市中山區中山一路 16 之 1 號","lat":25.13191,"lon":121.73837,"feature":""},"三坑":{"name":"三坑","id":"0910","address":"200006基隆市仁愛區德厚里龍安街 206 號","lat":25.12305,"lon":121.74202,"feature":""},"八堵":{"name":"八堵","id":"0920","address":"205001基隆市暖暖區八南里八堵路 142 號","lat":25.10838,"lon":121.72904,"feature":""},"七堵":{"name":"七堵","id":"0930","address":"206006基隆市七堵區長興里東新街 2 號","lat":25.09294,"lon":121.71415,"feature":""},"百福":{"name":"百福","id":"0940","address":"206011基隆市七堵區堵南里明德三路 1 之 1 號","lat":25.07795,"lon":121.69379,"feature":""},"五堵":{"name":"五堵","id":"0950","address":"221041新北市汐止區長安里長安路 17 號","lat":25.07799,"lon":121.66758,"feature":""},"汐止":{"name":"汐止","id":"0960","address":"221029新北市汐止區信望里信義路 1 號","lat":25.0679,"lon":121.66113,"feature":""},"汐科":{"name":"汐科","id":"0970","address":"221026新北市汐止區大同里大同路二段 182 號","lat":25.06406,"lon":121.65233,"feature":""},"南港":{"name":"南港","id":"0980","address":"115018臺北市南港區南港里南港路一段 313 號 B2","lat":25.05348,"lon":121.60706,"feature":""},"松山":{"name":"松山","id":"0990","address":"110417臺北市信義區松山路 11 號B1","lat":25.04927,"lon":121.57906,"feature":""},"台北":{"name":"臺北","id":"1000","address":"100230臺北市中正區黎明里北平西路 3 號","lat":25.04775,"lon":121.51711,"feature":""},"台北-環島":{"name":"臺北-環島","id":"1001","address":"100230臺北市中正區","lat":25.04774,"lon":121.51711,"feature":""},"萬華":{"name":"萬華","id":"1010","address":"108220臺北市萬華區富福里康定路 382 號","lat":25.03339,"lon":121.49996,"feature":""},"板橋":{"name":"板橋","id":"1020","address":"220227新北市板橋區新民里縣民大道二段 7 號（縣民大道側）","lat":25.01434,"lon":121.46377,"feature":""},"浮洲":{"name":"浮洲","id":"1030","address":"22058新北市板橋區僑中里僑中二街 156 號","lat":25.00419,"lon":121.44477,"feature":""},"樹林":{"name":"樹林","id":"1040","address":"238005新北市樹林區樹北里鎮前街 112 號","lat":24.99123,"lon":121.42442,"feature":""},"南樹林":{"name":"南樹林","id":"1050","address":"23846新北市樹林區東山里中山路二段 230 號","lat":24.98044,"lon":121.40884,"feature":""},"山佳":{"name":"山佳","id":"1060","address":"238012新北市樹林區中山路三段108號","lat":24.97273,"lon":121.39254,"feature":""},"鶯歌":{"name":"鶯歌","id":"1070","address":"239005新北市鶯歌區東鶯里文化路 68-1號","lat":24.95455,"lon":121.35517,"feature":""},"鳳鳴":{"name":"鳳鳴","id":"1075","address":"239013新北市鶯歌區鳳鳴里鳳一路 2 號","lat":24.97268,"lon":121.33658,"feature":""},"桃園":{"name":"桃園","id":"1080","address":"330002桃園市桃園區武陵里中正路 1 號","lat":24.98888,"lon":121.31449,"feature":""},"內壢":{"name":"內壢","id":"1090","address":"320070桃園市中壢區中原里中華路一段 267 號","lat":24.97281,"lon":121.25826,"feature":""},"中壢":{"name":"中壢","id":"1100","address":"320001桃園市中壢區石頭里中和路 139 號","lat":24.95374,"lon":121.22589,"feature":""},"埔心":{"name":"埔心","id":"1110","address":"326009桃園市楊梅區埔心里永美路 208 號","lat":24.91939,"lon":121.18363,"feature":""},"楊梅":{"name":"楊梅","id":"1120","address":"326101桃園市楊梅區楊梅里大成路 256 號","lat":24.91427,"lon":121.14637,"feature":""},"富岡":{"name":"富岡","id":"1130","address":"326019桃園市楊梅區富岡里成功路 37 號","lat":24.93436,"lon":121.08309,"feature":""},"新富":{"name":"新富","id":"1140","address":"326019桃園市楊梅區富豐里新明街","lat":24.93109,"lon":121.06751,"feature":""},"北湖":{"name":"北湖","id":"1150","address":"303118新竹縣湖口鄉東興村北湖路 1 號","lat":24.92218,"lon":121.05575,"feature":""},"湖口":{"name":"湖口","id":"1160","address":"303032新竹縣湖口鄉仁勢村中山路二段 121 號","lat":24.90303,"lon":121.04412,"feature":""},"新豐":{"name":"新豐","id":"1170","address":"304114新竹縣新豐鄉山崎村新興路 202 號","lat":24.86939,"lon":120.99626,"feature":""},"竹北":{"name":"竹北","id":"1180","address":"30265新竹縣竹北市竹義里和平街 59 號","lat":24.83919,"lon":121.00946,"feature":""},"北新竹":{"name":"北新竹","id":"1190","address":"300002新竹市 東區東園里中華路一段 291 之 2 號","lat":24.80875,"lon":120.98381,"feature":""},"千甲":{"name":"千甲","id":"1191","address":"300053新竹市 東區水源里千甲路 142 號","lat":24.80657,"lon":121.0034,"feature":""},"新莊":{"name":"新莊","id":"1192","address":"300051新竹市 東區新莊里關東路 310 號","lat":24.78811,"lon":121.02196,"feature":""},"竹中":{"name":"竹中","id":"1193","address":"310019新竹縣竹東鎮頭重里竹中路 145 號","lat":24.78145,"lon":121.03141,"feature":""},"六家":{"name":"六家","id":"1194","address":"302052新竹縣竹北市隘口里復興三路二段 229 號","lat":24.80766,"lon":121.03941,"feature":""},"上員":{"name":"上員","id":"1201","address":"310021新竹縣竹東鎮上員里光明路 (無站房)","lat":24.77776,"lon":121.05582,"feature":""},"榮華":{"name":"榮華","id":"1202","address":"310008新竹縣竹東鎮仁愛里北興路 (無站房)","lat":24.74839,"lon":121.08319,"feature":""},"竹東":{"name":"竹東","id":"1203","address":"310007新竹縣竹東鎮雞林里東林路 196 號","lat":24.73823,"lon":121.09472,"feature":""},"橫山":{"name":"橫山","id":"1204","address":"312001新竹縣橫山鄉橫山村橫山路 97 號 (無站房)","lat":24.72041,"lon":121.11772,"feature":""},"九讚頭":{"name":"九讚頭","id":"1205","address":"312002新竹縣橫山鄉大肚村中豐路二段 286 巷 29 號","lat":24.72062,"lon":121.13622,"feature":""},"合興":{"name":"合興","id":"1206","address":"312003新竹縣橫山鄉力行村中山街一段 17 號","lat":24.71667,"lon":121.15437,"feature":""},"富貴":{"name":"富貴","id":"1207","address":"312003新竹縣橫山鄉豐田村中山街一段 (無站房)","lat":24.71551,"lon":121.16743,"feature":""},"內灣":{"name":"內灣","id":"1208","address":"312003新竹縣橫山鄉內灣村中正路 6 號","lat":24.70535,"lon":121.18255,"feature":""},"新竹":{"name":"新竹","id":"1210","address":"300003新竹市 東區榮光里中華路二段 445 號","lat":24.80157,"lon":120.97157,"feature":""},"三姓橋":{"name":"三姓橋","id":"1220","address":"300109新竹市 香山區香山里元培街 32 巷 30 號","lat":24.78731,"lon":120.92844,"feature":""},"香山":{"name":"香山","id":"1230","address":"300111新竹市 香山區朝山里中華路五段 347 巷 2 弄 27 號","lat":24.76311,"lon":120.91388,"feature":""},"崎頂":{"name":"崎頂","id":"1240","address":"35054苗栗縣竹南鎮崎頂里北戶 55 號","lat":24.72291,"lon":120.87183,"feature":""},"竹南":{"name":"竹南","id":"1250","address":"350007苗栗縣竹南鎮竹南里中山路 166 號","lat":24.68654,"lon":120.88041,"feature":""},"樹林調車場":{"name":"樹林調車場","id":"1998","address":"","lat":24.97992,"lon":121.40554,"feature":""},"談文":{"name":"談文","id":"2110","address":"36143苗栗縣造橋鄉談文村仁愛路 29 號","lat":24.65641,"lon":120.85825,"feature":""},"大山":{"name":"大山","id":"2120","address":"35658苗栗縣後龍鎮大山里明山路 180 號","lat":24.64565,"lon":120.80376,"feature":""},"後龍":{"name":"後龍","id":"2130","address":"35641苗栗縣後龍鎮北龍里車站街 127-2 號","lat":24.61621,"lon":120.78731,"feature":""},"龍港":{"name":"龍港","id":"2140","address":"35668苗栗縣後龍鎮龍津里7鄰公司寮 85 號","lat":24.61169,"lon":120.75812,"feature":""},"白沙屯":{"name":"白沙屯","id":"2150","address":"35742苗栗縣通霄鎮白西里白西 131 號","lat":24.56481,"lon":120.70824,"feature":""},"新埔":{"name":"新埔","id":"2160","address":"35742苗栗縣通霄鎮新埔里新埔 57 號","lat":24.54018,"lon":120.69518,"feature":""},"通霄":{"name":"通霄","id":"2170","address":"357006苗栗縣通霄鎮通西里中正路 109 號","lat":24.49141,"lon":120.67843,"feature":""},"苑裡":{"name":"苑裡","id":"2180","address":"358011苗栗縣苑裡鎮苑北里中山路 165 號","lat":24.44344,"lon":120.65146,"feature":""},"日南":{"name":"日南","id":"2190","address":"437105臺中市大甲區孟春里中山路二段 140 巷 8 號","lat":24.37815,"lon":120.65412,"feature":""},"大甲":{"name":"大甲","id":"2200","address":"437003臺中市大甲區大甲里中山路一段 828 號","lat":24.34448,"lon":120.62702,"feature":""},"台中港":{"name":"臺中港","id":"2210","address":"43642臺中市清水區頂湳里甲南路 2 號","lat":24.30441,"lon":120.60231,"feature":""},"清水":{"name":"清水","id":"2220","address":"436109臺中市清水區南社里中正街 115 號","lat":24.26364,"lon":120.56918,"feature":""},"沙鹿":{"name":"沙鹿","id":"2230","address":"43353臺中市沙鹿區沙鹿里中正街 94 號","lat":24.23702,"lon":120.55752,"feature":""},"龍井":{"name":"龍井","id":"2240","address":"43450臺中市龍井區龍泉里龍新路 1 號","lat":24.19748,"lon":120.54335,"feature":""},"大肚":{"name":"大肚","id":"2250","address":"43242臺中市大肚區頂街里平和街 121 號","lat":24.15417,"lon":120.54249,"feature":""},"追分":{"name":"追分","id":"2260","address":"43245臺中市大肚區王田里追分街 13 號","lat":24.12051,"lon":120.57018,"feature":""},"造橋":{"name":"造橋","id":"3140","address":"36144苗栗縣造橋鄉造橋村平仁路 54 號","lat":24.64186,"lon":120.86721,"feature":""},"豐富":{"name":"豐富","id":"3150","address":"356002苗栗縣後龍鎮校椅里高鐵一路 66 號","lat":24.60429,"lon":120.82637,"feature":""},"苗栗":{"name":"苗栗","id":"3160","address":"360003苗栗縣苗栗市上苗里為公路 1 號","lat":24.57001,"lon":120.82233,"feature":""},"南勢":{"name":"南勢","id":"3170","address":"360023苗栗縣苗栗市新英里南勢 39 號","lat":24.52246,"lon":120.79154,"feature":""},"銅鑼":{"name":"銅鑼","id":"3180","address":"36641苗栗縣銅鑼鄉銅鑼村大同路13號","lat":24.48634,"lon":120.78617,"feature":""},"三義":{"name":"三義","id":"3190","address":"367001苗栗縣三義鄉雙湖村雙湖 90 號","lat":24.42066,"lon":120.77393,"feature":""},"泰安":{"name":"泰安","id":"3210","address":"42156臺中市后里區泰安里安眉路 37 之 12 號","lat":24.33146,"lon":120.74181,"feature":""},"后里":{"name":"后里","id":"3220","address":"42142臺中市后里區義里里甲后路一段 1 號","lat":24.30933,"lon":120.73288,"feature":""},"豐原":{"name":"豐原","id":"3230","address":"420020臺中市豐原區豐原里中正路 1-1號","lat":24.25438,"lon":120.72374,"feature":""},"栗林":{"name":"栗林","id":"3240","address":"427001臺中市潭子區潭豐路二段747號","lat":24.23461,"lon":120.7106,"feature":""},"潭子":{"name":"潭子","id":"3250","address":"42751臺中市潭子區中山路二段352-1號","lat":24.21214,"lon":120.70564,"feature":""},"頭家厝":{"name":"頭家厝","id":"3260","address":"42745臺中市潭子區頭張東路43巷8號","lat":24.19572,"lon":120.70398,"feature":""},"松竹":{"name":"松竹","id":"3270","address":"406015臺中市北屯區舊社里松竹路一段1473巷100號","lat":24.18035,"lon":120.70193,"feature":""},"太原":{"name":"太原","id":"3280","address":"406008臺中市北屯區北興里東光路 665 號","lat":24.16449,"lon":120.69988,"feature":""},"精武":{"name":"精武","id":"3290","address":"401005臺中市東區東南里東光路 161號","lat":24.14887,"lon":120.69784,"feature":""},"台中":{"name":"臺中","id":"3300","address":"400005臺中市中區綠川里臺灣大道一段 1 號","lat":24.13728,"lon":120.68691,"feature":""},"五權":{"name":"五權","id":"3310","address":"402019臺中市南區建國南路二段201號","lat":24.12877,"lon":120.66654,"feature":""},"大慶":{"name":"大慶","id":"3320","address":"402026臺中市南區樹德里7鄰大慶街2段130號","lat":24.11911,"lon":120.64795,"feature":""},"烏日":{"name":"烏日","id":"3330","address":"41442臺中市烏日區烏日里三民街 258 號","lat":24.10867,"lon":120.62244,"feature":""},"新烏日":{"name":"新烏日","id":"3340","address":"41456臺中市烏日區三和里高鐵東一路 26 號","lat":24.10937,"lon":120.61421,"feature":""},"成功":{"name":"成功","id":"3350","address":"414012臺中市烏日區榮泉里中山路三段 550 號","lat":24.11424,"lon":120.59021,"feature":""},"彰化":{"name":"彰化","id":"3360","address":"500003彰化縣彰化市長樂里三民路 1 號","lat":24.08177,"lon":120.53854,"feature":""},"花壇":{"name":"花壇","id":"3370","address":"503009彰化縣花壇鄉花壇村中正路 370 號","lat":24.02502,"lon":120.53742,"feature":""},"大村":{"name":"大村","id":"3380","address":"515002彰化縣大村鄉過溝村福進路 100 號","lat":23.99002,"lon":120.56062,"feature":""},"員林":{"name":"員林","id":"3390","address":"510001彰化縣員林市和平里民權街 55 號","lat":23.95947,"lon":120.56977,"feature":""},"永靖":{"name":"永靖","id":"3400","address":"512001彰化縣永靖鄉崙子村崙饒路25 號","lat":23.92808,"lon":120.57173,"feature":""},"社頭":{"name":"社頭","id":"3410","address":"511009彰化縣社頭鄉廣興村社站路 10 號","lat":23.89573,"lon":120.58077,"feature":""},"田中":{"name":"田中","id":"3420","address":"520022彰化縣田中鎮中路里中州路一段 1 號","lat":23.85843,"lon":120.59146,"feature":""},"二水":{"name":"二水","id":"3430","address":"530018彰化縣二水鄉光化村光文路 1 號","lat":23.81321,"lon":120.61805,"feature":""},"源泉":{"name":"源泉","id":"3431","address":"530017彰化縣二水鄉合興村英義路 (無站房)","lat":23.79845,"lon":120.64211,"feature":""},"濁水":{"name":"濁水","id":"3432","address":"551001南投縣名間鄉濁水村車站路 15 號","lat":23.83467,"lon":120.70467,"feature":""},"龍泉":{"name":"龍泉","id":"3433","address":"552003南投縣集集鎮隘寮村龍泉巷 (無站房)","lat":23.83521,"lon":120.75014,"feature":""},"集集":{"name":"集集","id":"3434","address":"552001南投縣集集鎮吳厝里民生路 75 號","lat":23.82647,"lon":120.78495,"feature":""},"水里":{"name":"水里","id":"3435","address":"553001南投縣水里鄉水里村民生路 440 號","lat":23.81845,"lon":120.85332,"feature":""},"車埕":{"name":"車埕","id":"3436","address":"553004南投縣水里鄉車埕村民權巷 2 號","lat":23.83263,"lon":120.86572,"feature":""},"林內":{"name":"林內","id":"3450","address":"643001雲林縣林內鄉林中村中山路 42 號","lat":23.75967,"lon":120.61499,"feature":""},"石榴":{"name":"石榴","id":"3460","address":"640155雲林縣斗六市榴北里文明路 31 號","lat":23.73167,"lon":120.57998,"feature":""},"斗六":{"name":"斗六","id":"3470","address":"640010雲林縣斗六市信義里民生路 187 號","lat":23.71184,"lon":120.54099,"feature":""},"斗南":{"name":"斗南","id":"3480","address":"630042雲林縣斗南鎮南昌里中山路 2 號","lat":23.67257,"lon":120.48089,"feature":""},"石龜":{"name":"石龜","id":"3490","address":"630雲林縣斗南鎮石龜里","lat":23.63951,"lon":120.47106,"feature":""},"大林":{"name":"大林","id":"4050","address":"622002嘉義縣大林鎮吉林里中山路 2 號","lat":23.60089,"lon":120.45597,"feature":""},"民雄":{"name":"民雄","id":"4060","address":"621002嘉義縣民雄鄉東榮村和平路 2 號","lat":23.55522,"lon":120.43165,"feature":""},"嘉北":{"name":"嘉北","id":"4070","address":"600050嘉義市 東區後湖里保建街 110 號","lat":23.49981,"lon":120.44851,"feature":""},"嘉義":{"name":"嘉義","id":"4080","address":"600006嘉義市 西區番社里中山路 528 號","lat":23.47915,"lon":120.44114,"feature":""},"水上":{"name":"水上","id":"4090","address":"608001嘉義縣水上鄉粗溪村68號","lat":23.43398,"lon":120.39971,"feature":""},"南靖":{"name":"南靖","id":"4100","address":"608009嘉義縣水上鄉三鎮村三鎮路 26 號","lat":23.41344,"lon":120.38654,"feature":""},"後壁":{"name":"後壁","id":"4110","address":"731022臺南市後壁區後壁里後壁 77 號","lat":23.36626,"lon":120.36058,"feature":""},"新營":{"name":"新營","id":"4120","address":"730005臺南市新營區中營里中山路 1 號","lat":23.30673,"lon":120.32307,"feature":""},"柳營":{"name":"柳營","id":"4130","address":"736002臺南市柳營區東昇里建國路 1 號","lat":23.27762,"lon":120.32252,"feature":""},"林鳳營":{"name":"林鳳營","id":"4140","address":"734004臺南市六甲區中社里林鳳營 16 號","lat":23.24259,"lon":120.32107,"feature":""},"隆田":{"name":"隆田","id":"4150","address":"720001臺南市官田區隆田里中山路一段 1 號","lat":23.19271,"lon":120.31917,"feature":""},"拔林":{"name":"拔林","id":"4160","address":"720004臺南市官田區拔林里拔子林 83 之 1 號","lat":23.17284,"lon":120.32125,"feature":""},"善化":{"name":"善化","id":"4170","address":"741001臺南市善化區光文里中山路 1 號","lat":23.13333,"lon":120.30653,"feature":""},"南科":{"name":"南科","id":"4180","address":"744008臺南市新市區大營里大營 287-300 號","lat":23.10726,"lon":120.30202,"feature":""},"新市":{"name":"新市","id":"4190","address":"744004臺南市新市區新和里中華路 1 號","lat":23.06823,"lon":120.29004,"feature":""},"永康":{"name":"永康","id":"4200","address":"710017臺南市永康區埔園里中山路 459 號","lat":23.03825,"lon":120.25347,"feature":""},"大橋":{"name":"大橋","id":"4210","address":"710009臺南市永康區西橋里中華路 835 號","lat":23.01923,"lon":120.22429,"feature":""},"台南":{"name":"臺南","id":"4220","address":"701014臺南市東區成大里北門路二段4號","lat":22.99681,"lon":120.21295,"feature":""},"保安":{"name":"保安","id":"4250","address":"717015臺南市仁德區保安里文賢路一段 529 巷 10 號","lat":22.93296,"lon":120.23158,"feature":""},"仁德":{"name":"仁德","id":"4260","address":"717010臺南市仁德區保安里永德路 10 號","lat":22.92354,"lon":120.24054,"feature":""},"中洲":{"name":"中洲","id":"4270","address":"717014臺南市仁德區中洲五街236號","lat":22.90446,"lon":120.25284,"feature":""},"長榮大學":{"name":"長榮大學","id":"4271","address":"711010臺南市歸仁區大潭里長大路15 號","lat":22.90729,"lon":120.27263,"feature":""},"沙崙":{"name":"沙崙","id":"4272","address":"711010臺南市歸仁區沙崙里歸仁大道 102 號","lat":22.92407,"lon":120.28622,"feature":""},"大湖":{"name":"大湖","id":"4290","address":"821004高雄市路竹區甲南里天祐路 24 號","lat":22.87821,"lon":120.25384,"feature":""},"路竹":{"name":"路竹","id":"4300","address":"821006高雄市路竹區竹南里中正路 288 號","lat":22.85404,"lon":120.26619,"feature":""},"岡山":{"name":"岡山","id":"4310","address":"820102高雄市岡山區碧紅里岡燕路 111 號","lat":22.79223,"lon":120.30004,"feature":""},"橋頭":{"name":"橋頭","id":"4320","address":"825008高雄市橋頭區橋頭里站前街 14 號","lat":22.76098,"lon":120.31011,"feature":""},"楠梓":{"name":"楠梓","id":"4330","address":"811022高雄市楠梓區惠楠里建楠路 229 號","lat":22.72696,"lon":120.32425,"feature":""},"新左營":{"name":"新左營","id":"4340","address":"813014高雄市左營區尾北里站前北路 1 號","lat":22.68754,"lon":120.30678,"feature":""},"左營":{"name":"左營","id":"4350","address":"813014高雄市左營區翠華路1050號地下1層","lat":22.67445,"lon":120.29401,"feature":""},"內惟":{"name":"內惟","id":"4360","address":"804056高雄市鼓山區翠華路500號地下1層","lat":22.66589,"lon":120.28701,"feature":""},"美術館":{"name":"美術館","id":"4370","address":"804016高雄市鼓山區翠華路246號","lat":22.65185,"lon":120.28148,"feature":""},"鼓山":{"name":"鼓山","id":"4380","address":"804005高雄市鼓山區鐵路街20巷6號","lat":22.64181,"lon":120.28071,"feature":""},"三塊厝":{"name":"三塊厝","id":"4390","address":"807008高雄市三民區德北里6鄰康平街1號","lat":22.63931,"lon":120.29414,"feature":""},"高雄":{"name":"高雄","id":"4400","address":"807001高雄市三民區港西里建國二路 318 號","lat":22.63946,"lon":120.30292,"feature":""},"民族":{"name":"民族","id":"4410","address":"807027高雄市三民區博惠里14鄰凱旋一路260號","lat":22.63879,"lon":120.31494,"feature":""},"科工館":{"name":"科工館","id":"4420","address":"807031高雄市三民區寶盛里15鄰大順三路307號","lat":22.63709,"lon":120.32603,"feature":""},"正義":{"name":"正義","id":"4430","address":"802001高雄市苓雅區建軍里正義路 308 號 B1","lat":22.63425,"lon":120.34245,"feature":""},"鳳山":{"name":"鳳山","id":"4440","address":"830025高雄市鳳山區曹公里曹公路 137 號","lat":22.63145,"lon":120.35745,"feature":""},"後庄":{"name":"後庄","id":"4450","address":"831115高雄市大寮區後庄里民慶街 9 號","lat":22.64016,"lon":120.39131,"feature":""},"九曲堂":{"name":"九曲堂","id":"4460","address":"840001高雄市大樹區久堂里久堂路鐵路巷 15 號","lat":22.65641,"lon":120.42089,"feature":""},"六塊厝":{"name":"六塊厝","id":"4470","address":"900008屏東縣屏東市長安里光復路 392 號","lat":22.66597,"lon":120.46497,"feature":""},"屏東":{"name":"屏東","id":"5000","address":"900011屏東縣屏東市建國里公勇路 62 號","lat":22.66905,"lon":120.48617,"feature":""},"歸來":{"name":"歸來","id":"5010","address":"900002屏東縣屏東市歸心里歸仁路 5 之 4 號","lat":22.65246,"lon":120.50263,"feature":""},"麟洛":{"name":"麟洛","id":"5020","address":"909141屏東縣麟洛鄉田道村中華路站前巷 15 號","lat":22.63481,"lon":120.51432,"feature":""},"西勢":{"name":"西勢","id":"5030","address":"911165屏東縣竹田鄉西勢村西豐路 2 號","lat":22.61637,"lon":120.52649,"feature":""},"竹田":{"name":"竹田","id":"5040","address":"911165屏東縣竹田鄉履豐村豐明路29 號","lat":22.58658,"lon":120.53978,"feature":""},"潮州":{"name":"潮州","id":"5050","address":"920004屏東縣潮州鎮新榮里信義路 111 號","lat":22.55008,"lon":120.53604,"feature":""},"崁頂":{"name":"崁頂","id":"5060","address":"924003屏東縣崁頂鄉崁頂村田寮路","lat":22.51311,"lon":120.51481,"feature":""},"南州":{"name":"南州","id":"5070","address":"926003屏東縣南州鄉仁里村仁里路 86 號","lat":22.49207,"lon":120.51174,"feature":""},"鎮安":{"name":"鎮安","id":"5080","address":"927005屏東縣林邊鄉鎮安村永和路4號","lat":22.45794,"lon":120.51129,"feature":""},"林邊":{"name":"林邊","id":"5090","address":"927001屏東縣林邊鄉仁和村仁愛路 33 號","lat":22.43135,"lon":120.51529,"feature":""},"佳冬":{"name":"佳冬","id":"5100","address":"931006屏東縣佳冬鄉六根村復興路21號","lat":22.41409,"lon":120.54774,"feature":""},"東海":{"name":"東海","id":"5110","address":"940002屏東縣枋寮鄉東海村西安路 92 號","lat":22.39897,"lon":120.57236,"feature":""},"枋寮":{"name":"枋寮","id":"5120","address":"940003屏東縣枋寮鄉枋寮村儲運路 18 號","lat":22.36802,"lon":120.59511,"feature":""},"加祿":{"name":"加祿","id":"5130","address":"941005屏東縣枋山鄉加祿村會社 53 號","lat":22.33085,"lon":120.62445,"feature":""},"內獅":{"name":"內獅","id":"5140","address":"941010屏東縣枋山鄉加祿村南和 43 號","lat":22.30617,"lon":120.64331,"feature":""},"枋山":{"name":"枋山","id":"5160","address":"943010屏東縣獅子鄉內獅村內獅巷 84 號","lat":22.26704,"lon":120.65947,"feature":""},"枋野":{"name":"枋野","id":"5170","address":"94350屏東縣獅子鄉內獅村內獅巷 88 號","lat":22.28091,"lon":120.71709,"feature":""},"大武":{"name":"大武","id":"5190","address":"965003臺東縣大武鄉大鳥村和平部落 33 號","lat":22.36526,"lon":120.90094,"feature":""},"瀧溪":{"name":"瀧溪","id":"5200","address":"963006臺東縣太麻里鄉多良村大溪 37 號","lat":22.46102,"lon":120.94176,"feature":""},"金崙":{"name":"金崙","id":"5210","address":"963005臺東縣太麻里鄉金崙村金崙 47 之 17 號","lat":22.53161,"lon":120.96721,"feature":""},"太麻里":{"name":"太麻里","id":"5220","address":"963004臺東縣太麻里鄉大王村站前路 2 號","lat":22.61883,"lon":121.00492,"feature":""},"知本":{"name":"知本","id":"5230","address":"950103臺東縣臺東市知本里知本路二段 900 巷 85 號","lat":22.71022,"lon":121.06068,"feature":""},"康樂":{"name":"康樂","id":"5240","address":"950029臺東縣臺東市康樂里博物館路 51 巷 131 號","lat":22.76426,"lon":121.09356,"feature":""},"南方小站":{"name":"南方小站","id":"5998","address":"92013屏東縣潮州鎮光復路 461 號","lat":22.52755,"lon":120.53658,"feature":""},"潮州基地":{"name":"潮州基地","id":"5999","address":"92054屏東縣潮州鎮光春里光復路 616 號","lat":22.52231,"lon":120.52642,"feature":""},"台東":{"name":"臺東","id":"6000","address":"950030臺東縣臺東市岩灣里岩灣路 101 巷 598 號","lat":22.79372,"lon":121.1231,"feature":""},"山里":{"name":"山里","id":"6010","address":"954003臺東縣卑南鄉嘉豐村山里路 108 號","lat":22.86194,"lon":121.13778,"feature":""},"鹿野":{"name":"鹿野","id":"6020","address":"955002臺東縣鹿野鄉鹿野村中正路 38 號","lat":22.91249,"lon":121.13701,"feature":""},"瑞源":{"name":"瑞源","id":"6030","address":"955003臺東縣鹿野鄉瑞源村瑞景路一段 336 巷 8 號 之 1","lat":22.95604,"lon":121.15901,"feature":""},"瑞和":{"name":"瑞和","id":"6040","address":"955003臺東縣鹿野鄉瑞和村瑞景路三段 1 之 1 號","lat":22.97997,"lon":121.15595,"feature":""},"關山":{"name":"關山","id":"6050","address":"956004臺東縣關山鎮里壠里博愛路 2 號","lat":23.04566,"lon":121.1643,"feature":""},"海端":{"name":"海端","id":"6060","address":"956004臺東縣關山鎮德高里西莊 49 號","lat":23.10292,"lon":121.17676,"feature":""},"池上":{"name":"池上","id":"6070","address":"958003臺東縣池上鄉福文村鐵花路 30 號","lat":23.12613,"lon":121.21949,"feature":""},"富里":{"name":"富里","id":"6080","address":"983001花蓮縣富里鄉富里村車站街 56 號","lat":23.17924,"lon":121.24864,"feature":""},"東竹":{"name":"東竹","id":"6090","address":"983005花蓮縣富里鄉新興村新興 23 號","lat":23.22605,"lon":121.27842,"feature":""},"東里":{"name":"東里","id":"6100","address":"983004花蓮縣富里鄉東里村大莊路 15 之 6 號","lat":23.27234,"lon":121.30418,"feature":""},"玉里":{"name":"玉里","id":"6110","address":"981003花蓮縣玉里鎮中城里康樂街 39 號","lat":23.33155,"lon":121.31172,"feature":""},"三民":{"name":"三民","id":"6120","address":"981010花蓮縣玉里鎮三民里三民 10 號","lat":23.42458,"lon":121.34539,"feature":""},"瑞穗":{"name":"瑞穗","id":"6130","address":"978001花蓮縣瑞穗鄉瑞穗村四維街 13 號","lat":23.49738,"lon":121.37684,"feature":""},"富源":{"name":"富源","id":"6140","address":"978003花蓮縣瑞穗鄉富源村富源路 2 號","lat":23.58031,"lon":121.38008,"feature":""},"大富":{"name":"大富","id":"6150","address":"976007花蓮縣光復鄉大富村明德路 1 號","lat":23.60571,"lon":121.38963,"feature":""},"光復":{"name":"光復","id":"6160","address":"976007花蓮縣光復鄉大安村中正路一段 2 之 1 號","lat":23.66631,"lon":121.42117,"feature":""},"萬榮":{"name":"萬榮","id":"6170","address":"975003花蓮縣鳳林鎮長橋里長德街 17 號","lat":23.71199,"lon":121.41907,"feature":""},"鳳林":{"name":"鳳林","id":"6180","address":"975005花蓮縣鳳林鎮鳳智里中山路 43 號","lat":23.74634,"lon":121.44701,"feature":""},"南平":{"name":"南平","id":"6190","address":"975002花蓮縣鳳林鎮南平里自強路 233 號","lat":23.78231,"lon":121.45824,"feature":""},"林榮新光":{"name":"林榮新光","id":"6200","address":"975002花蓮縣鳳林鎮兆豐路800號","lat":23.80176,"lon":121.46169,"feature":""},"豐田":{"name":"豐田","id":"6210","address":"974006花蓮縣壽豐鄉豐山村站前街 36 號","lat":23.84842,"lon":121.49618,"feature":""},"壽豐":{"name":"壽豐","id":"6220","address":"974002花蓮縣壽豐鄉壽豐村壽山路 1 號","lat":23.86901,"lon":121.51064,"feature":""},"平和":{"name":"平和","id":"6230","address":"974004花蓮縣壽豐鄉平和村平和路 1 號","lat":23.88279,"lon":121.52045,"feature":""},"志學":{"name":"志學","id":"6240","address":"974003花蓮縣壽豐鄉志學村中正路 1 號","lat":23.90769,"lon":121.5295,"feature":""},"吉安":{"name":"吉安","id":"6250","address":"973039花蓮縣吉安鄉南昌村南昌路1號","lat":23.96823,"lon":121.58266,"feature":""},"花蓮":{"name":"花蓮","id":"7000","address":"970015花蓮縣花蓮市國聯里國聯一路 100 號","lat":23.99265,"lon":121.60131,"feature":""},"北埔":{"name":"北埔","id":"7010","address":"971066花蓮縣新城鄉北埔村自強街 113 號","lat":24.03253,"lon":121.60166,"feature":""},"景美":{"name":"景美","id":"7020","address":"972067花蓮縣秀林鄉景美村加灣 178 之 1 號","lat":24.09041,"lon":121.61095,"feature":""},"新城":{"name":"新城","id":"7030","address":"971001花蓮縣新城鄉新城村新興一路 73 號","lat":24.12756,"lon":121.64086,"feature":""},"崇德":{"name":"崇德","id":"7040","address":"972003花蓮縣秀林鄉崇德村海濱路 96 號","lat":24.17199,"lon":121.65536,"feature":""},"和仁":{"name":"和仁","id":"7050","address":"972005花蓮縣秀林鄉和平村和仁 71 號","lat":24.24225,"lon":121.71182,"feature":""},"和平":{"name":"和平","id":"7060","address":"972005花蓮縣秀林鄉和平村和平 276 號","lat":24.29839,"lon":121.75344,"feature":""},"漢本":{"name":"漢本","id":"7070","address":"272019宜蘭縣南澳鄉澳花村蘇花路一段 56 號","lat":24.33543,"lon":121.76838,"feature":""},"武塔":{"name":"武塔","id":"7080","address":"272017宜蘭縣南澳鄉武塔村新溪路 18 號","lat":24.44879,"lon":121.77601,"feature":""},"南澳":{"name":"南澳","id":"7090","address":"270010宜蘭縣蘇澳鎮南強里大通路 22 號","lat":24.46342,"lon":121.80103,"feature":""},"東澳":{"name":"東澳","id":"7100","address":"272006宜蘭縣南澳鄉東岳村東岳路 1 號","lat":24.51827,"lon":121.83072,"feature":""},"永樂":{"name":"永樂","id":"7110","address":"270011宜蘭縣蘇澳鎮永樂里圳頭路 60 號","lat":24.56843,"lon":121.84458,"feature":""},"蘇澳":{"name":"蘇澳","id":"7120","address":"270001宜蘭縣蘇澳鎮蘇南里太平路 1 號","lat":24.59516,"lon":121.85143,"feature":""},"蘇澳新":{"name":"蘇澳新","id":"7130","address":"270013宜蘭縣蘇澳鎮聖愛里中山路二段 238 號","lat":24.60852,"lon":121.82735,"feature":""},"新馬":{"name":"新馬","id":"7140","address":"270013宜蘭縣蘇澳鎮新城里中山路二段 322 號","lat":24.61541,"lon":121.82291,"feature":""},"冬山":{"name":"冬山","id":"7150","address":"269027宜蘭縣冬山鄉冬山村中正路 1 -1號","lat":24.63633,"lon":121.79211,"feature":""},"羅東":{"name":"羅東","id":"7160","address":"265010宜蘭縣羅東鎮大新里公正路 2 號","lat":24.67791,"lon":121.77464,"feature":""},"中里":{"name":"中里","id":"7170","address":"268018宜蘭縣五結鄉中里路","lat":24.69415,"lon":121.77526,"feature":""},"二結":{"name":"二結","id":"7180","address":"268016宜蘭縣五結鄉五結中路三段658巷8號","lat":24.70528,"lon":121.77409,"feature":""},"宜蘭":{"name":"宜蘭","id":"7190","address":"260003宜蘭縣宜蘭市和睦里光復路 1 號","lat":24.75457,"lon":121.75803,"feature":""},"四城":{"name":"四城","id":"7200","address":"262005宜蘭縣礁溪鄉吳沙村站前路 24 號","lat":24.78681,"lon":121.76271,"feature":""},"礁溪":{"name":"礁溪","id":"7210","address":"262001宜蘭縣礁溪鄉德陽村溫泉路 1 號","lat":24.82703,"lon":121.77535,"feature":""},"頂埔":{"name":"頂埔","id":"7220","address":"261002宜蘭縣頭城鎮下埔里下埔路 4 之 8 號","lat":24.84391,"lon":121.80913,"feature":""},"頭城":{"name":"頭城","id":"7230","address":"261006宜蘭縣頭城鎮纘祥路 59 號","lat":24.85898,"lon":121.82258,"feature":""},"外澳":{"name":"外澳","id":"7240","address":"261004宜蘭縣頭城鎮濱海路二段 217 號","lat":24.88375,"lon":121.84572,"feature":""},"龜山":{"name":"龜山","id":"7250","address":"261004宜蘭縣頭城鎮更新里濱海路三段 261 號","lat":24.90484,"lon":121.8689,"feature":""},"大溪":{"name":"大溪","id":"7260","address":"261005宜蘭縣頭城鎮濱海路五段 63 號","lat":24.93836,"lon":121.88983,"feature":""},"大里":{"name":"大里","id":"7270","address":"261005宜蘭縣頭城鎮大里里濱海路六段 326 號","lat":24.96677,"lon":121.92253,"feature":""},"石城":{"name":"石城","id":"7280","address":"261006宜蘭縣頭城鎮濱海路七段 230 號","lat":24.97832,"lon":121.94507,"feature":""},"福隆":{"name":"福隆","id":"7290","address":"228001新北市貢寮區福隆里福隆街 2 號","lat":25.01595,"lon":121.94471,"feature":""},"貢寮":{"name":"貢寮","id":"7300","address":"228003新北市貢寮區貢寮里朝陽街 33 號","lat":25.02197,"lon":121.90879,"feature":""},"雙溪":{"name":"雙溪","id":"7310","address":"227004新北市雙溪區新基里朝陽街 1 號","lat":25.03851,"lon":121.86654,"feature":""},"牡丹":{"name":"牡丹","id":"7320","address":"227001新北市雙溪區牡丹里51號","lat":25.05871,"lon":121.85197,"feature":""},"三貂嶺":{"name":"三貂嶺","id":"7330","address":"224006新北市瑞芳區碩仁里魚寮路 1 號","lat":25.06555,"lon":121.82257,"feature":""},"大華":{"name":"大華","id":"7331","address":"226003新北市平溪區南山里六分 12 之 1 號","lat":25.04998,"lon":121.79732,"feature":""},"十分":{"name":"十分","id":"7332","address":"226003新北市平溪區十分里十分街 51 號","lat":25.04111,"lon":121.77514,"feature":""},"望古":{"name":"望古","id":"7333","address":"226003新北市平溪區望古里 (無站房)","lat":25.03445,"lon":121.76349,"feature":""},"嶺腳":{"name":"嶺腳","id":"7334","address":"226001新北市平溪區嶺腳里嶺腳寮 22 號","lat":25.03016,"lon":121.74795,"feature":""},"平溪":{"name":"平溪","id":"7335","address":"226001新北市平溪區平溪里中華街 12 號","lat":25.02571,"lon":121.74019,"feature":""},"菁桐":{"name":"菁桐","id":"7336","address":"226002新北市平溪區菁桐里菁桐街 52 號","lat":25.02391,"lon":121.72391,"feature":""},"猴硐":{"name":"猴硐","id":"7350","address":"224006新北市瑞芳區光復里柴寮路 70 號","lat":25.08702,"lon":121.82743,"feature":""},"瑞芳":{"name":"瑞芳","id":"7360","address":"224001新北市瑞芳區龍潭里明燈路三段 82 號","lat":25.10872,"lon":121.80599,"feature":""},"海科館":{"name":"海科館","id":"7361","address":"202010基隆市中正區長潭里","lat":25.13754,"lon":121.79997,"feature":""},"八斗子":{"name":"八斗子","id":"7362","address":"224007新北市瑞芳區建基路2段121號隔壁 砂子里省道臺 2 線 (與新北市瑞芳區交界處、無站房)","lat":25.13528,"lon":121.80286,"feature":""},"四腳亭":{"name":"四腳亭","id":"7380","address":"224009新北市瑞芳區吉慶里中央路 65 號","lat":25.10281,"lon":121.76195,"feature":""},"暖暖":{"name":"暖暖","id":"7390","address":"20544基隆市暖暖區暖暖里暖暖街 51 號","lat":25.10231,"lon":121.74031,"feature":""}}